<<<<<<< HEAD:www/public/api_worldweather/cache/cities.json
{"cities":[{"id":"1","name":"New York","state":"NY","country":"USA","lat":"40.74232","lng":"-73.98799","zip":"0"},{"id":"2","name":"San Francisco","state":"CA","country":"USA","lat":"37.77493","lng":"-122.41942","zip":"0"},{"id":"3","name":"Toronto","state":"ON","country":"CA","lat":"43.65323","lng":"-79.38318","zip":"0"},{"id":"4","name":"Chicago","state":"IL","country":"USA","lat":"41.87811","lng":"-87.62980","zip":"0"},{"id":"5","name":"Los Angeles","state":"CA","country":"USA","lat":"34.05223","lng":"-118.24369","zip":"0"},{"id":"6","name":"Houston","state":"TX","country":"USA","lat":"29.76019","lng":"-95.36939","zip":"0"},{"id":"7","name":"Philadelphia","state":"PA","country":"USA","lat":"39.95234","lng":"-75.16379","zip":"0"},{"id":"8","name":"Phoenix","state":"AZ","country":"USA","lat":"33.44838","lng":"-112.07404","zip":"0"},{"id":"9","name":"San Diego","state":"CA","country":"USA","lat":"32.71533","lng":"-117.15726","zip":"0"},{"id":"10","name":"Vancouver","state":"BC","country":"CA","lat":"49.26123","lng":"-123.11393","zip":"0"},{"id":"11","name":"Tokyo","state":"","country":"JP","lat":"35.68949","lng":"139.69171","zip":"0"},{"id":"12","name":"Berlin","state":null,"country":"DE","lat":"52.51917","lng":"13.40609","zip":"0"},{"id":"13","name":null,"state":null,"country":"KR","lat":"37.56654","lng":"126.97797","zip":"0"},{"id":"14","name":"Mexico City","state":"","country":"MX","lat":"19.43261","lng":"-99.13321","zip":"0"},{"id":"15","name":"Mumbai","state":null,"country":"IN","lat":"19.07598","lng":"72.87766","zip":"0"},{"id":"16","name":null,"state":null,"country":"BZ","lat":"-23.54894","lng":"-46.63882","zip":"0"},{"id":"17","name":"Shanghai","state":null,"country":"CN","lat":"31.23039","lng":"121.47370","zip":"0"},{"id":"18","name":"Hong Kong","state":null,"country":"CN","lat":"22.39643","lng":"114.10950","zip":"0"},{"id":"19","name":"Moscow","state":null,"country":"RS","lat":"55.75124","lng":"37.61842","zip":"0"},{"id":"20","name":"London","state":null,"country":"UK","lat":"51.50734","lng":"-0.12768","zip":"0"},{"id":"21","name":"Paris","state":null,"country":"FR","lat":"48.85661","lng":"2.35222","zip":"0"},{"id":"22","name":"Tel Aviv","state":null,"country":"IL","lat":"32.06616","lng":"34.77782","zip":"0"},{"id":"23","name":"Rome","state":null,"country":"IT","lat":"41.90151","lng":"12.46077","zip":"0"}],"type":"cities","cacheDate":1362623827}
=======
{"cities":[{"id":"1","name":"New York","state":"NY","country":"USA","lat":"40.74232","lng":"-73.98799","zip":"0"},{"id":"2","name":"San Francisco","state":"CA","country":"USA","lat":"37.77493","lng":"-122.41942","zip":"0"},{"id":"3","name":"Toronto","state":"ON","country":"CA","lat":"43.65323","lng":"-79.38318","zip":"0"},{"id":"4","name":"Chicago","state":"IL","country":"USA","lat":"41.87811","lng":"-87.62980","zip":"0"},{"id":"5","name":"Los Angeles","state":"CA","country":"USA","lat":"34.05223","lng":"-118.24369","zip":"0"},{"id":"6","name":"Houston","state":"TX","country":"USA","lat":"29.76019","lng":"-95.36939","zip":"0"},{"id":"7","name":"Philadelphia","state":"PA","country":"USA","lat":"39.95234","lng":"-75.16379","zip":"0"},{"id":"8","name":"Phoenix","state":"AZ","country":"USA","lat":"33.44838","lng":"-112.07404","zip":"0"},{"id":"9","name":"San Diego","state":"CA","country":"USA","lat":"32.71533","lng":"-117.15726","zip":"0"},{"id":"10","name":"Vancouver","state":"BC","country":"CA","lat":"49.26123","lng":"-123.11393","zip":"0"},{"id":"11","name":"Tokyo","state":"","country":"JP","lat":"35.68949","lng":"139.69171","zip":"0"},{"id":"12","name":"Berlin","state":null,"country":"DE","lat":"52.51917","lng":"13.40609","zip":"0"},{"id":"13","name":null,"state":null,"country":"KR","lat":"37.56654","lng":"126.97797","zip":"0"},{"id":"14","name":"Mexico City","state":"","country":"MX","lat":"19.43261","lng":"-99.13321","zip":"0"},{"id":"15","name":"Mumbai","state":null,"country":"IN","lat":"19.07598","lng":"72.87766","zip":"0"},{"id":"16","name":null,"state":null,"country":"BZ","lat":"-23.54894","lng":"-46.63882","zip":"0"},{"id":"17","name":"Shanghai","state":null,"country":"CN","lat":"31.23039","lng":"121.47370","zip":"0"},{"id":"18","name":"Hong Kong","state":null,"country":"CN","lat":"22.39643","lng":"114.10950","zip":"0"},{"id":"19","name":"Moscow","state":null,"country":"RS","lat":"55.75124","lng":"37.61842","zip":"0"},{"id":"20","name":"London","state":null,"country":"UK","lat":"51.50734","lng":"-0.12768","zip":"0"},{"id":"21","name":"Paris","state":null,"country":"FR","lat":"48.85661","lng":"2.35222","zip":"0"},{"id":"22","name":"Tel Aviv","state":null,"country":"IL","lat":"32.06616","lng":"34.77782","zip":"0"},{"id":"23","name":"Rome","state":null,"country":"IT","lat":"41.90151","lng":"12.46077","zip":"0"}],"type":"cities","cacheDate":1367506862}
>>>>>>> 6258cc19b45615967d8d7c5758caedac6d3c96f0:www/public/api/cache/cities.json
